[
{
  "id":"01",
  "name":"Melbourne",
  "latitude":"-37.6732",
  "longitude":"144.8431"
},
{
  "id":"02",
  "name":"Dublin",
  "latitude":"53.4264",
  "longitude":"-6.2499"
},
{
  "id":"03",
  "name":"Vancouver",
  "latitude":"49.1966",
  "longitude":"-123.1815"
},
{
  "id":"04",
  "name":"Barcelona",
  "latitude":"41.2974",
  "longitude":"2.0832"
},
{
  "id":"05",
  "name":"Paris",
  "latitude":"48.8566",
  "longitude":"2.3522"
},
{
  "id":"06",
  "name":"Los Angeles",
  "latitude":"33.941",
  "longitude":"-118.4085"
},
{
  "id":"07",
  "name":"London",
  "latitude":"51.5073",
  "longitude":"-0.1277"
}
]